{"version": 0.6, "generator": "Overpass API 0.7.60.2 e4cf9f7a", "osm3s": {"timestamp_osm_base": "2023-04-29T12:57:54Z", "copyright": "The data included in this document is from www.openstreetmap.org. The data is made available under ODbL."}, "elements": [{"type": "node", "id": 381953906, "lat": 50.9401019, "lon": 7.0195011, "tags": {"amenity": "restaurant", "indoor_seating": "yes", "name": "Taj Mahal Masala", "opening_hours": "PH,Tu-Su 11:00-22:30; Mo off", "outdoor_seating": "no", "source": "photography"}}, {"type": "node", "id": 3039420043, "lat": 50.9385045, "lon": 7.0201072}, {"type": "node", "id": 3039420044, "lat": 50.9385066, "lon": 7.020188}, {"type": "node", "id": 3039420047, "lat": 50.9385149, "lon": 7.020164}, {"type": "node", "id": 3039420052, "lat": 50.9385566, "lon": 7.0199781}, {"type": "node", "id": 3039420053, "lat": 50.9385607, "lon": 7.0199755}, {"type": "node", "id": 3039420055, "lat": 50.9385715, "lon": 7.0202447}, {"type": "node", "id": 3039420057, "lat": 50.9385756, "lon": 7.0200611}, {"type": "node", "id": 3039420063, "lat": 50.9386265, "lon": 7.020095}, {"type": "node", "id": 3039420656, "lat": 50.9395631, "lon": 7.0171406, "tags": {"amenity": "restaurant", "contact:email": "info@philerohotel-koeln.de", "contact:fax": "+49 221 8024100", "contact:phone": "+49 221 802400", "contact:website": "https://www.philerohotel-koeln.de/", "cuisine": "international", "name": "Restaurant La Verde", "opening_hours": "Mo-Sa 06:30-22:30; Su 06:30-11:00", "operator": "PhiLeRo Hotel K\u00f6ln", "smoking": "no", "wheelchair": "yes"}}, {"type": "node", "id": 8567662482, "lat": 50.9438281, "lon": 7.0308401, "tags": {"addr:city": "K\u00f6ln", "addr:postcode": "51103", "amenity": "restaurant", "contact:facebook": "https://www.facebook.com/Ristorante-Zur-Merheimer-Heide-748421108536730/", "cuisine": "italian;pizza;pasta", "name": "Ristorante Zur Merheimer Heide", "opening_hours": "Tu-We 16:00-22:30; Th-Su 16:00-23:00", "phone": "+49 1577 2662273"}}, {"type": "way", "id": 28764355, "nodes": [3039420063, 3039420053, 3039420052, 3039420057, 3039420043, 3039420047, 3039420044, 3039420055, 3039420063], "tags": {"addr:city": "K\u00f6ln", "addr:country": "DE", "addr:housenumber": "2", "addr:postcode": "51103", "addr:street": "Schulstra\u00dfe", "amenity": "restaurant", "building": "yes", "building:levels": "1", "building:use": "residential;industrial", "name": "Oranieneck", "smoking": "yes"}}]}