{"version": 0.6, "generator": "Overpass API 0.7.60.2 e4cf9f7a", "osm3s": {"timestamp_osm_base": "2023-04-29T12:57:54Z", "copyright": "The data included in this document is from www.openstreetmap.org. The data is made available under ODbL."}, "elements": [{"type": "node", "id": 376064139, "lat": 51.0017388, "lon": 6.8775681, "tags": {"amenity": "restaurant", "cuisine": "greek;pizza", "name": "Saloniki City Grill", "opening_hours": "Mo-Fr 11:30-22:00; Sa,Su,PH 13:00-22:00", "wheelchair": "no"}}, {"type": "node", "id": 376064383, "lat": 50.9984437, "lon": 6.8774612, "tags": {"amenity": "restaurant", "cuisine": "steak_house", "name": "Steaks aus aller Welt", "wheelchair": "no"}}, {"type": "node", "id": 2002695067, "lat": 50.9962233, "lon": 6.8725311, "tags": {"addr:city": "K\u00f6ln", "addr:housenumber": "4", "addr:postcode": "50767", "addr:street": "Schulstra\u00dfe", "amenity": "restaurant", "capacity": "60", "cuisine": "italian", "internet_access": "wlan", "name": "Trattoria \"Da Toni\"", "opening_hours": "Tu-Fr 11:30-14:30,18:00-23:00", "operator": "Toni", "phone": "+49 221 16913699", "smoking": "outside", "website": "https://www.latrattoria-datoni.de/"}}, {"type": "node", "id": 3297058819, "lat": 51.0067013, "lon": 6.8701283, "tags": {"amenity": "restaurant", "name": "Zum Koke"}}, {"type": "node", "id": 3765294817, "lat": 50.9976964, "lon": 6.8759741, "tags": {"amenity": "restaurant", "contact:phone": "+49 221 5902739", "cuisine": "italian", "indoor_seating": "yes", "name": "Latio", "opening_hours": "Mo-Su 11:45-14:45; Su-Th 17:00-22:00; Fr-Sa 17:00-22:30", "outdoor_seating": "yes"}}]}