{"version": 0.6, "generator": "Overpass API 0.7.60.2 e4cf9f7a", "osm3s": {"timestamp_osm_base": "2023-04-29T12:57:54Z", "copyright": "The data included in this document is from www.openstreetmap.org. The data is made available under ODbL."}, "elements": [{"type": "node", "id": 246707185, "lat": 50.9982226, "lon": 6.9102249, "tags": {"addr:city": "K\u00f6ln", "addr:country": "DE", "addr:housenumber": "7 a", "addr:postcode": "50739", "addr:street": "Wirtsgasse", "amenity": "restaurant", "email": "info@muehlenhof-koeln.de", "name": "M\u00fchlenhof", "opening_hours": "We-Sa 16:30-22:00; Su 11:30-15:00, 17:00-21:00; Mo-Tu off", "phone": "+49 221 16893751", "website": "https://www.muehlenhof-koeln.de"}}, {"type": "node", "id": 246707193, "lat": 50.9965749, "lon": 6.9146604, "tags": {"amenity": "restaurant", "fax": "+49 221 5349580", "name": "Dalmatien", "opening_hours": "Mo-Su 11:30-15:00,17:00-23:00", "phone": "+49 221 5991781", "source": "survey"}}, {"type": "node", "id": 287593600, "lat": 50.9979046, "lon": 6.9371221, "tags": {"addr:city": "K\u00f6ln", "addr:country": "DE", "addr:housenumber": "2", "addr:postcode": "50735", "addr:street": "Neusser Landstra\u00dfe", "amenity": "restaurant", "name": "Nobis", "phone": "+49 221 20042340"}}, {"type": "node", "id": 1490848245, "lat": 50.9941998, "lon": 6.925499, "tags": {"amenity": "restaurant", "cuisine": "italian", "name": "da Stefano", "outdoor_seating": "yes", "phone": "+49 221 42346920", "tv": "yes", "wheelchair": "no"}}, {"type": "node", "id": 2686380604, "lat": 50.9968998, "lon": 6.9054654}, {"type": "node", "id": 2686380605, "lat": 50.996944, "lon": 6.905438}, {"type": "node", "id": 2686380606, "lat": 50.9969487, "lon": 6.9056581}, {"type": "node", "id": 2686380608, "lat": 50.9969524, "lon": 6.9054715}, {"type": "node", "id": 2686380615, "lat": 50.9969869, "lon": 6.9054495}, {"type": "node", "id": 2686380616, "lat": 50.9969946, "lon": 6.9054814}, {"type": "node", "id": 2686380617, "lat": 50.9970149, "lon": 6.9055655}, {"type": "node", "id": 2686380621, "lat": 50.9970289, "lon": 6.9056237}, {"type": "node", "id": 2686381194, "lat": 50.9984258, "lon": 6.9028066}, {"type": "node", "id": 2686381199, "lat": 50.9984325, "lon": 6.9027503}, {"type": "node", "id": 2686381205, "lat": 50.9984427, "lon": 6.9027974}, {"type": "node", "id": 2686381207, "lat": 50.9984483, "lon": 6.9029109}, {"type": "node", "id": 2686381213, "lat": 50.9984654, "lon": 6.9029013}, {"type": "node", "id": 2686381224, "lat": 50.9984907, "lon": 6.9030148}, {"type": "node", "id": 2686381239, "lat": 50.9985225, "lon": 6.9027001}, {"type": "node", "id": 2686381245, "lat": 50.9985393, "lon": 6.9027763}, {"type": "node", "id": 2686381257, "lat": 50.9985803, "lon": 6.9027532}, {"type": "node", "id": 2686381271, "lat": 50.9986221, "lon": 6.902941}, {"type": "node", "id": 2712993542, "lat": 50.9943296, "lon": 6.9317965, "tags": {"amenity": "restaurant", "cuisine": "chinese", "name": "Chinesische Mauer", "phone": "+49 221 945 897 40", "website": "https://www.chinesische-mauer-koeln.de/"}}, {"type": "node", "id": 3182564045, "lat": 50.9979799, "lon": 6.9061832, "tags": {"addr:city": "K\u00f6ln", "addr:housenumber": "3", "addr:postcode": "50739", "addr:street": "Dionysstra\u00dfe", "amenity": "restaurant", "cuisine": "italian", "name": "Etna Trattoria"}}, {"type": "node", "id": 9139978652, "lat": 50.9949077, "lon": 6.9258137, "tags": {"amenity": "restaurant", "cuisine": "italian", "indoor_seating": "yes", "name": "la Rossini", "opening_hours": "Mo-Su 11:30-22:00", "outdoor_seating": "yes", "phone": "+49 221 169 322 58", "website": "https://larossini-koeln.de/"}}, {"type": "node", "id": 9149792661, "lat": 50.995962, "lon": 6.9141126, "tags": {"amenity": "restaurant", "cuisine": "italian", "name": "Ristorante Pizzeria la Piccola"}}, {"type": "way", "id": 235737104, "nodes": [2686380615, 2686380608, 2686380605, 2686380604, 2686380606, 2686380621, 2686380617, 2686380616, 2686380615], "tags": {"addr:city": "K\u00f6ln", "addr:country": "DE", "addr:housenumber": "72", "addr:postcode": "50739", "addr:street": "Longericher Hauptstra\u00dfe", "amenity": "restaurant", "building": "yes", "building:use": "residential;industrial", "capacity": "80", "cuisine": "italian", "name": "Da Enzo", "opening_hours": "Mo-Su 12:00-14:30, 17:00-23:00", "outdoor_seating": "yes", "phone": "+49 221 5994296", "website": "http://www.daenzo-koeln.de/"}}, {"type": "way", "id": 235737123, "nodes": [2686381257, 2686381245, 2686381239, 2686381199, 2686381205, 2686381194, 2686381207, 2686381213, 2686381224, 2686381271, 2686381257], "tags": {"addr:city": "K\u00f6ln", "addr:country": "DE", "addr:housenumber": "66", "addr:postcode": "50739", "addr:street": "Grethenstra\u00dfe", "amenity": "restaurant", "building": "yes", "building:use": "residential;industrial", "cuisine": "international", "name": "Restaurant J\u00e4gerhof", "opening_hours": "Mo-Su 11:00-15:00, 17:00-24:00", "phone": "+49 221 5993053", "source": "survey", "website": "http://www.web-flag.de/restaurant-jaegerhof.html", "wheelchair": "limited"}}]}