{"version": 0.6, "generator": "Overpass API 0.7.60.2 e4cf9f7a", "osm3s": {"timestamp_osm_base": "2023-04-29T12:57:54Z", "copyright": "The data included in this document is from www.openstreetmap.org. The data is made available under ODbL."}, "elements": [{"type": "node", "id": 247388982, "lat": 51.0261195, "lon": 6.9582275, "tags": {"amenity": "restaurant", "name": "Haus Hilden", "source": "survey"}}, {"type": "node", "id": 247388983, "lat": 51.0262732, "lon": 6.9578674, "tags": {"amenity": "restaurant", "created_by": "JOSM", "name": "Merkenicher Pizzeria", "source": "survey", "wheelchair": "no"}}, {"type": "node", "id": 264128325, "lat": 51.0387011, "lon": 6.9462629, "tags": {"amenity": "restaurant", "name": "Kasselberger Gretchen"}}, {"type": "node", "id": 1341272468, "lat": 51.0525201, "lon": 6.9141028}, {"type": "node", "id": 1341272471, "lat": 51.0525939, "lon": 6.9139491}, {"type": "node", "id": 1341272472, "lat": 51.0525356, "lon": 6.9142633}, {"type": "node", "id": 1341272474, "lat": 51.0527056, "lon": 6.9141369}, {"type": "node", "id": 1341272475, "lat": 51.0525855, "lon": 6.9143349}, {"type": "node", "id": 2991933719, "lat": 51.0525262, "lon": 6.914055}, {"type": "node", "id": 2991933720, "lat": 51.052537, "lon": 6.9140813}, {"type": "node", "id": 2991933721, "lat": 51.0525414, "lon": 6.9140444}, {"type": "node", "id": 2991933722, "lat": 51.0525433, "lon": 6.9139772}, {"type": "node", "id": 2991933733, "lat": 51.0525747, "lon": 6.9139778}, {"type": "way", "id": 119351213, "nodes": [1341272471, 2991933733, 2991933722, 2991933721, 2991933719, 2991933720, 1341272468, 1341272472, 1341272475, 1341272474, 1341272471], "tags": {"addr:city": "K\u00f6ln", "addr:country": "DE", "addr:housenumber": "132", "addr:postcode": "50769", "addr:street": "Cohnenhofstra\u00dfe", "amenity": "restaurant", "breakfast": "Sa-Su 10:00-12:00", "building": "yes", "building:levels": "2", "building:use": "residential;industrial", "cuisine": "italian", "name": "Zur F\u00e4hre", "opening_hours": "Mo-Fr 11:30-22:00; Sa-Su 10:00-22:00", "outdoor_seating": "yes", "phone": "+49 221 53998283", "toilets:wheelchair": "yes", "website": "http://www.faehre-koeln.de/", "wheelchair": "yes"}}]}