{"version": 0.6, "generator": "Overpass API 0.7.60.2 e4cf9f7a", "osm3s": {"timestamp_osm_base": "2023-04-29T12:57:54Z", "copyright": "The data included in this document is from www.openstreetmap.org. The data is made available under ODbL."}, "elements": [{"type": "node", "id": 346411218, "lat": 50.913063, "lon": 6.9409589, "tags": {"addr:housenumber": "68", "addr:street": "Herthastra\u00dfe", "amenity": "restaurant", "email": "info@hoeninger-koeln.de", "name": "H\u00f6ninger", "operator": "H\u00d6NINGER Gastronomie GmbH", "outdoor_seating": "yes", "phone": "+49 221 3685422", "ref:vatin": "DE247372079", "smoking": "outside", "takeaway": "yes", "toilets": "yes", "website": "https://www.hoeninger-koeln.de/", "wheelchair": "limited"}}, {"type": "node", "id": 647846415, "lat": 50.9126671, "lon": 6.9456656, "tags": {"addr:housenumber": "2", "addr:postcode": "50969", "addr:street": "Herthastra\u00dfe", "amenity": "restaurant", "name": "Gastst\u00e4tte Mehl"}}, {"type": "node", "id": 647856931, "lat": 50.9130292, "lon": 6.9419419, "tags": {"addr:city": "K\u00f6ln", "addr:housenumber": "64", "addr:postcode": "50969", "addr:street": "Herthastra\u00dfe", "amenity": "restaurant", "disused:amenity": "pub", "indoor_seating": "yes", "internet_access": "no", "name": "Zollhof", "opening_hours": "Mo - Su 17:00 -  23:00", "outdoor_seating": "yes", "phone": "+49 175 4849243", "smoking": "outside", "website": "https://zollhof.koeln/", "wheelchair": "no"}}, {"type": "node", "id": 2347248211, "lat": 50.9108824, "lon": 6.940742, "tags": {"addr:city": "K\u00f6ln", "addr:housenumber": "29", "addr:postcode": "50969", "addr:street": "Gottesweg", "amenity": "restaurant", "cuisine": "chinese", "name": "Hongwei"}}, {"type": "node", "id": 2347252699, "lat": 50.9108385, "lon": 6.9409487, "tags": {"addr:city": "K\u00f6ln", "addr:housenumber": "27", "addr:postcode": "50969", "addr:street": "Gottesweg", "amenity": "restaurant", "cuisine": "burger", "name": "Burger Hof"}}, {"type": "node", "id": 2660177013, "lat": 50.9085648, "lon": 6.9410667}, {"type": "node", "id": 2660177016, "lat": 50.9085667, "lon": 6.9410671}, {"type": "node", "id": 2660177018, "lat": 50.9085692, "lon": 6.9410044}, {"type": "node", "id": 2660177037, "lat": 50.9085949, "lon": 6.9411476}, {"type": "node", "id": 2660177039, "lat": 50.9085999, "lon": 6.9410726}, {"type": "node", "id": 2660177103, "lat": 50.9088151, "lon": 6.9411838}, {"type": "node", "id": 2660177109, "lat": 50.9088178, "lon": 6.9411374}, {"type": "node", "id": 2660177132, "lat": 50.9088558, "lon": 6.9411427}, {"type": "node", "id": 2660177137, "lat": 50.9088619, "lon": 6.9410573}, {"type": "node", "id": 2713998661, "lat": 50.9126209, "lon": 6.9409015, "tags": {"amenity": "restaurant", "diet:vegetarian": "yes", "name": "Caf\u00e9 Majorelle", "wheelchair": "no"}}, {"type": "node", "id": 5104344727, "lat": 50.9008851, "lon": 6.9455975, "tags": {"addr:city": "K\u00f6ln", "addr:housenumber": "126", "addr:postcode": "50968", "addr:street": "Markusstra\u00dfe", "amenity": "restaurant", "indoor_seating": "yes", "name": "Bella Pizza", "opening_hours": "Mo-Fr 10:30-21:30; Sa 15:30-21:30; PH,Su 12:00-21:30", "outdoor_seating": "yes", "phone": "+49 221 340 45 95", "website": "https://www.bella-pizza.eu"}}, {"type": "node", "id": 5202387842, "lat": 50.9140552, "lon": 6.9465523, "tags": {"addr:city": "K\u00f6ln", "addr:country": "DE", "addr:housenumber": "102", "addr:postcode": "50969", "addr:street": "Vorgebirgstra\u00dfe", "amenity": "restaurant", "cuisine": "steak_house", "delivery": "no", "description": "Grill-Restaurant mit mittelalterlichem Ambiente", "email": "lordofthegrillz@gmail.com;", "name": "Lord of the Grillz", "opening_hours": "Mo-Th 11:00-22:00, Fr-Su 11:00-00:00", "operator": "Jazz-Galerie Gastst\u00e4tten-GmbH", "takeaway": "no", "website": "https://lordofthegrillz.de/"}}, {"type": "node", "id": 6063273830, "lat": 50.9147, "lon": 6.9411706, "tags": {"addr:city": "K\u00f6ln", "addr:housenumber": "125", "addr:postcode": "50969", "addr:street": "H\u00f6ninger Weg", "amenity": "restaurant", "cuisine": "indian", "diet:vegetarian": "yes", "name": "Haweli", "opening_hours": "Tu -Fr 11:00-15:00; Sa 16:00-23:00; Su 16:00-22:00", "payment:cash": "yes", "payment:credit_cards": "yes", "payment:girocard": "yes", "phone": "+49 221 80028828", "takeaway": "yes", "website": "https://haweli.koeln", "wheelchair": "limited"}}, {"type": "node", "id": 6261639952, "lat": 50.9124012, "lon": 6.9409178, "tags": {"addr:city": "K\u00f6ln", "addr:housenumber": "171", "addr:postcode": "50969", "addr:street": "H\u00f6ninger Weg", "amenity": "restaurant", "capacity": "50", "cuisine": "greek", "indoor_seating": "yes", "name": "Mythos Grill", "opening_hours": "Tu-Th 12:00-21:30; Fr 12:00-22:00; Sa 16:00-22:00", "outdoor_seating": "yes", "smoking": "outside", "takeaway": "yes", "website": "https://www.mythos.koeln/", "wheelchair": "limited"}}, {"type": "node", "id": 7528325973, "lat": 50.9012246, "lon": 6.9433289, "tags": {"addr:city": "K\u00f6ln", "addr:housenumber": "416", "addr:postcode": "50969", "addr:street": "H\u00f6ninger Weg", "amenity": "restaurant", "name": "DeNIZ", "phone": "+49 221 363407", "website": "https://deniz.restaurant/"}}, {"type": "node", "id": 7528366306, "lat": 50.9009066, "lon": 6.9454117, "tags": {"addr:city": "K\u00f6ln", "addr:housenumber": "126", "addr:postcode": "50968", "addr:street": "Markusstra\u00dfe", "amenity": "restaurant", "cuisine": "international", "name": "Haus Sch\u00e4ffer", "phone": "+49 221 363396", "website": "https://restaurant-haus-schaeffer.metro.rest/?lang=de"}}, {"type": "way", "id": 260519211, "nodes": [2660177137, 2660177018, 2660177013, 2660177016, 2660177039, 2660177037, 2660177103, 2660177109, 2660177132, 2660177137], "tags": {"addr:city": "K\u00f6ln", "addr:country": "DE", "addr:housenumber": "218b", "addr:postcode": "50969", "addr:street": "H\u00f6ninger Weg", "amenity": "restaurant", "building": "yes", "cuisine": "chinese", "name": "Yummy Town", "toilets:wheelchair": "yes", "wheelchair": "yes"}}]}